{"currentPage":4,"numberOfPages":4,"totalResults":151,"data":[{"id":"kbGF2q","name":"Zonk","nameDisplay":"Zonk","description":"Saint-Denis, Seine-Saint-Denis\nSmoked Amber\nOrge fum\u00e9 \u00e0 l'h\u00eatre \nHoublon am\u00e9ricain Chinook\nNote d'\u00e9pice","abv":"4","styleId":101,"isOrganic":"N","status":"verified","statusDisplay":"Verified","createDate":"2015-04-29 19:48:57","updateDate":"2015-04-30 19:28:47","style":{"id":101,"categoryId":8,"category":{"id":8,"name":"North American Lager","createDate":"2012-03-21 20:06:46"},"name":"American-Style Amber Lager","shortName":"American Amber Lager","description":"American-style amber lagers are light amber to amber or copper colored. They are medium bodied. There is a noticeable degree of caramel-type malt character in flavor and often in aroma. This is a broad category in which the hop bitterness, flavor, and aroma may be accentuated or may only be present at relatively low levels, yet noticeable. Fruity esters, diacetyl, and chill haze should be absent.","ibuMin":"18","ibuMax":"30","abvMin":"4.8","abvMax":"5.4","srmMin":"6","srmMax":"14","ogMin":"1.042","fgMin":"1.01","fgMax":"1.018","createDate":"2012-03-21 20:06:46","updateDate":"2015-04-07 15:41:26"},"breweries":[{"id":"LHeMgq","name":"FrogBeer","nameShortDisplay":"FrogBeer","description":"Brewing beer is what we love to do and at FrogPubs we make every drop of draft beer that we sell. In each site we brew 6 draft beers, each one with it's own unique flavor. All of our beers are original, fresh, hand-made, and, most importantly, they are our own!","website":"http:\/\/www.frogpubs.com\/","isOrganic":"N","status":"verified","statusDisplay":"Verified","createDate":"2015-04-27 19:15:45","updateDate":"2015-12-22 16:08:06","locations":[{"id":"pN76TO","name":"The Frog & Rosbif","streetAddress":"116 rue St. Denis","region":"Paris","postalCode":"75002","phone":"01.42.36.34.73","hoursOfOperation":"Open every day 12h-2h. Food served everyday, 12h - 23h.","latitude":48.8643665,"longitude":2.3500946,"isPrimary":"Y","inPlanning":"N","isClosed":"N","openToPublic":"Y","locationType":"brewpub","locationTypeDisplay":"Brewpub","countryIsoCode":"FR","status":"verified","statusDisplay":"Verified","createDate":"2015-04-28 15:08:50","updateDate":"2015-04-28 15:28:17","country":{"isoCode":"FR","name":"FRANCE","displayName":"France","isoThree":"FRA","numberCode":250,"createDate":"2012-01-03 02:41:33"}},{"id":"Rgpucp","name":"The Frog & Princess","streetAddress":"9 rue Princesse","region":"Paris","postalCode":"75006","phone":"01.40.51.77.38","hoursOfOperation":"We are open weekdays 17h30 - 2h. Weekends 11h30 - 2h. Food served Monday to Friday 17h30 - 23h00. Saturday & Sunday 11h30 - 23h00","latitude":48.852277,"longitude":2.3346836,"isPrimary":"N","inPlanning":"N","isClosed":"N","openToPublic":"Y","locationType":"brewpub","locationTypeDisplay":"Brewpub","countryIsoCode":"FR","status":"verified","statusDisplay":"Verified","createDate":"2015-04-28 15:12:48","updateDate":"2015-04-28 15:14:37","country":{"isoCode":"FR","name":"FRANCE","displayName":"France","isoThree":"FRA","numberCode":250,"createDate":"2012-01-03 02:41:33"}},{"id":"40YimG","name":"The Frog At Bercy Village","streetAddress":"25 cour St. Emilion","region":"Paris","postalCode":"75012","phone":"01.43.40.70.71","latitude":48.8326563,"longitude":2.385932,"isPrimary":"N","inPlanning":"N","isClosed":"N","openToPublic":"Y","locationType":"brewpub","locationTypeDisplay":"Brewpub","countryIsoCode":"FR","status":"verified","statusDisplay":"Verified","createDate":"2015-04-28 15:14:37","updateDate":"2015-04-28 15:19:35","country":{"isoCode":"FR","name":"FRANCE","displayName":"France","isoThree":"FRA","numberCode":250,"createDate":"2012-01-03 02:41:33"}},{"id":"gKHWvh","name":"The Frog & British Library","streetAddress":"114 avenue de France","region":"Paris","postalCode":"75013","phone":"01.45.84.34.26","hoursOfOperation":"We are open weekdays 7h30-2h, Weekends 12h-2h. Food served: Mon. to Thurs. From 7h to 23h Fri. 7h-24h Sat. 12h-24h. Sunday 12h-23h.","latitude":48.8306519,"longitude":2.3767749,"isPrimary":"N","inPlanning":"N","isClosed":"N","openToPublic":"Y","locationType":"brewpub","locationTypeDisplay":"Brewpub","countryIsoCode":"FR","status":"verified","statusDisplay":"Verified","createDate":"2015-04-28 15:19:35","updateDate":"2015-04-28 15:21:11","country":{"isoCode":"FR","name":"FRANCE","displayName":"France","isoThree":"FRA","numberCode":250,"createDate":"2012-01-03 02:41:33"}},{"id":"Ie0L58","name":"Frog XVI","streetAddress":"110 bis Avenue Kleber","region":"Paris","postalCode":"75016","phone":"01.47.27.88.88","hoursOfOperation":"Open every day 12h-2h","latitude":48.8648597,"longitude":2.2882164,"isPrimary":"N","inPlanning":"N","isClosed":"N","openToPublic":"Y","locationType":"brewpub","locationTypeDisplay":"Brewpub","countryIsoCode":"FR","status":"verified","statusDisplay":"Verified","createDate":"2015-04-28 15:21:11","updateDate":"2015-04-28 15:24:14","country":{"isoCode":"FR","name":"FRANCE","displayName":"France","isoThree":"FRA","numberCode":250,"createDate":"2012-01-03 02:41:33"}},{"id":"uxj9EZ","name":"The Frog Revolution","streetAddress":"9 rue de la Bastille","region":"Paris","phone":"01.42.74.34.41","latitude":48.8539653,"longitude":2.3682158,"isPrimary":"N","inPlanning":"N","isClosed":"N","openToPublic":"Y","locationType":"brewpub","locationTypeDisplay":"Brewpub","countryIsoCode":"FR","status":"verified","statusDisplay":"Verified","createDate":"2015-04-28 15:24:14","updateDate":"2015-04-28 15:25:32","country":{"isoCode":"FR","name":"FRANCE","displayName":"France","isoThree":"FRA","numberCode":250,"createDate":"2012-01-03 02:41:33"}},{"id":"XHRxO0","name":"Frog Hop House","streetAddress":"10 rue des Capucines","region":"Paris","postalCode":"75002","phone":"01.42.36.18.34","latitude":48.8688914,"longitude":2.3296196,"isPrimary":"N","inPlanning":"N","isClosed":"N","openToPublic":"Y","locationType":"brewpub","locationTypeDisplay":"Brewpub","countryIsoCode":"FR","status":"verified","statusDisplay":"Verified","createDate":"2015-04-28 15:25:32","updateDate":"2015-04-28 15:28:17","country":{"isoCode":"FR","name":"FRANCE","displayName":"France","isoThree":"FRA","numberCode":250,"createDate":"2012-01-03 02:41:33"}},{"id":"9bAlXR","name":"The Frog & Rosbif - Toulouse","streetAddress":"14 rue de l'Industrie","region":"Toulouse","postalCode":"31000","phone":"05.61.99.28.57","hoursOfOperation":"Open weekdays 17h30 - 2h, Sat. 13h30 - 3h, Sun. 13h30 - 2h","latitude":43.6048669,"longitude":1.4512034,"isPrimary":"N","inPlanning":"N","isClosed":"N","openToPublic":"Y","locationType":"brewpub","locationTypeDisplay":"Brewpub","countryIsoCode":"FR","status":"verified","statusDisplay":"Verified","createDate":"2015-04-28 15:32:46","updateDate":"2015-04-28 15:32:46","country":{"isoCode":"FR","name":"FRANCE","displayName":"France","isoThree":"FRA","numberCode":250,"createDate":"2012-01-03 02:41:33"}},{"id":"lutZgs","name":"The Frog & Rosbif - Bordeaux","streetAddress":"23 rue Ausone","region":"Bordeaux","postalCode":"33000","phone":"05.56.48.55.85","latitude":44.8377208,"longitude":-0.5681638,"isPrimary":"N","inPlanning":"Y","isClosed":"N","openToPublic":"Y","locationType":"brewpub","locationTypeDisplay":"Brewpub","countryIsoCode":"FR","status":"verified","statusDisplay":"Verified","createDate":"2015-04-28 15:34:16","updateDate":"2015-04-28 15:34:16","country":{"isoCode":"FR","name":"FRANCE","displayName":"France","isoThree":"FRA","numberCode":250,"createDate":"2012-01-03 02:41:33"}}]}]}],"status":"success"}